[
    {
        "name": "Eiffel Tower",
        "city": "Paris",
        "country": "France",
        "lat": 48.8584,
        "lng": 2.2945,
        "difficulty": "easy"
    },
    {
        "name": "Statue of Liberty",
        "city": "New York",
        "country": "USA",
        "lat": 40.6892,
        "lng": -74.0445,
        "difficulty": "easy"
    },
    {
        "name": "Colosseum",
        "city": "Rome",
        "country": "Italy",
        "lat": 41.8902,
        "lng": 12.4922,
        "difficulty": "easy"
    },
    {
        "name": "Sydney Opera House",
        "city": "Sydney",
        "country": "Australia",
        "lat": -33.8568,
        "lng": 151.2153,
        "difficulty": "easy"
    },
    {
        "name": "Mount Fuji",
        "city": "Fujinomiya",
        "country": "Japan",
        "lat": 35.3606,
        "lng": 138.7274,
        "difficulty": "medium"
    },
    {
        "name": "Christ the Redeemer",
        "city": "Rio de Janeiro",
        "country": "Brazil",
        "lat": -22.9519,
        "lng": -43.2105,
        "difficulty": "medium"
    },
    {
        "name": "Great Wall of China",
        "city": "Beijing",
        "country": "China",
        "lat": 40.4319,
        "lng": 116.5704,
        "difficulty": "medium"
    },
    {
        "name": "Machu Picchu",
        "city": "Cusco",
        "country": "Peru",
        "lat": -13.1631,
        "lng": -72.5450,
        "difficulty": "hard"
    },
    {
        "name": "Petra",
        "city": "Ma'an",
        "country": "Jordan",
        "lat": 30.3285,
        "lng": 35.4444,
        "difficulty": "hard"
    },
    {
        "name": "Angkor Wat",
        "city": "Siem Reap",
        "country": "Cambodia",
        "lat": 13.4125,
        "lng": 103.8667,
        "difficulty": "hard"
    }
]
